{"type":"FeatureCollection","features":[{"type":"Feature","geometry":{"type":"Point","coordinates":[55.516758748808954,25.301487976394682]},"id":"0","properties":{"area_name":"muwaileh_suburb","centroid_lat":25.301487976394682,"centroid_lon":55.51675874880896,"population_max":23.63746452331543,"population_min":14.628946304321289}},{"type":"Feature","geometry":{"type":"Point","coordinates":[55.38111844007923,25.353241100208198]},"id":"1","properties":{"area_name":"jubail","centroid_lat":25.353241100208198,"centroid_lon":55.38111844007923,"population_max":23.63746452331543,"population_min":14.628946304321289}},{"type":"Feature","geometry":{"type":"Point","coordinates":[55.42046811716174,25.345742014077416]},"id":"2","properties":{"area_name":"halwan","centroid_lat":25.34574201407742,"centroid_lon":55.42046811716175,"population_max":23.63746452331543,"population_min":14.628946304321289}},{"type":"Feature","geometry":{"type":"Point","coordinates":[55.44440315300698,25.333655182302575]},"id":"3","properties":{"area_name":"mughaider_suburb","centroid_lat":25.333655182302575,"centroid_lon":55.44440315300698,"population_max":23.63746452331543,"population_min":14.628946304321289}},{"type":"Feature","geometry":{"type":"Point","coordinates":[55.3829445821173,25.331991362373145]},"id":"4","properties":{"area_name":"majaz","centroid_lat":25.33199136237314,"centroid_lon":55.382944582117304,"population_max":23.63746452331543,"population_min":14.628946304321289}},{"type":"Feature","geometry":{"type":"Point","coordinates":[55.470101627418174,25.3048822435603]},"id":"5","properties":{"area_name":"zahia","centroid_lat":25.3048822435603,"centroid_lon":55.47010162741817,"population_max":23.63746452331543,"population_min":14.628946304321289}},{"type":"Feature","geometry":{"type":"Point","coordinates":[55.42339343552692,25.320642053101942]},"id":"6","properties":{"area_name":"industrial","centroid_lat":25.320642053101942,"centroid_lon":55.42339343552691,"population_max":23.63746452331543,"population_min":14.628946304321289}},{"type":"Feature","geometry":{"type":"Point","coordinates":[55.49820615057694,25.277343612456036]},"id":"7","properties":{"area_name":"noaf","centroid_lat":25.27734361245604,"centroid_lon":55.49820615057694,"population_max":23.63746452331543,"population_min":14.628946304321289}},{"type":"Feature","geometry":{"type":"Point","coordinates":[55.390634894514875,25.346896201686643]},"id":"8","properties":{"area_name":"qasmiyah","centroid_lat":25.346896201686643,"centroid_lon":55.390634894514875,"population_max":23.63746452331543,"population_min":14.628946304321289}},{"type":"Feature","geometry":{"type":"Point","coordinates":[55.39739664016748,25.338861389809967]},"id":"9","properties":{"area_name":"abushagarah","centroid_lat":25.33886138980997,"centroid_lon":55.39739664016748,"population_max":23.63746452331543,"population_min":14.628946304321289}},{"type":"Feature","geometry":{"type":"Point","coordinates":[55.40480699018786,25.350307065490806]},"id":"10","properties":{"area_name":"yarmouk","centroid_lat":25.350307065490803,"centroid_lon":55.40480699018786,"population_max":23.63746452331543,"population_min":14.628946304321289}},{"type":"Feature","geometry":{"type":"Point","coordinates":[55.397367563795534,25.354772767778087]},"id":"11","properties":{"area_name":"mussalla","centroid_lat":25.354772767778087,"centroid_lon":55.397367563795534,"population_max":23.63746452331543,"population_min":14.628946304321289}},{"type":"Feature","geometry":{"type":"Point","coordinates":[55.390904984552755,25.357824352428988]},"id":"12","properties":{"area_name":"ghuwair","centroid_lat":25.357824352428988,"centroid_lon":55.390904984552755,"population_max":23.63746452331543,"population_min":14.628946304321289}}]}