{"type":"FeatureCollection","features":[{"type":"Feature","geometry":{"type":"Point","coordinates":[55.516758748808954,25.301487976394682]},"id":"0","properties":{"DNB_BRDF_Corrected_NTL_max":190.97382202148438,"DNB_BRDF_Corrected_NTL_mean":88.69352823613953,"DNB_BRDF_Corrected_NTL_min":29.237517765590123,"area_name":"muwaileh_suburb","centroid_lat":25.301487976394682,"centroid_lon":55.51675874880896,"color_max":293.627587890625,"color_min":22.799912452697754,"year":2020}},{"type":"Feature","geometry":{"type":"Point","coordinates":[55.38111844007923,25.353241100208198]},"id":"1","properties":{"DNB_BRDF_Corrected_NTL_max":246.50044666637075,"DNB_BRDF_Corrected_NTL_mean":179.7563538122436,"DNB_BRDF_Corrected_NTL_min":112.91558074951172,"area_name":"jubail","centroid_lat":25.353241100208198,"centroid_lon":55.38111844007923,"color_max":293.627587890625,"color_min":22.799912452697754,"year":2020}},{"type":"Feature","geometry":{"type":"Point","coordinates":[55.42046811716174,25.345742014077416]},"id":"2","properties":{"DNB_BRDF_Corrected_NTL_max":269.0244827270508,"DNB_BRDF_Corrected_NTL_mean":115.97109603834215,"DNB_BRDF_Corrected_NTL_min":83.18255043029785,"area_name":"halwan","centroid_lat":25.34574201407742,"centroid_lon":55.42046811716175,"color_max":293.627587890625,"color_min":22.799912452697754,"year":2020}},{"type":"Feature","geometry":{"type":"Point","coordinates":[55.44440315300698,25.333655182302575]},"id":"3","properties":{"DNB_BRDF_Corrected_NTL_max":168.35100555419922,"DNB_BRDF_Corrected_NTL_mean":107.043573113347,"DNB_BRDF_Corrected_NTL_min":85.68428257533482,"area_name":"mughaider_suburb","centroid_lat":25.333655182302575,"centroid_lon":55.44440315300698,"color_max":293.627587890625,"color_min":22.799912452697754,"year":2020}},{"type":"Feature","geometry":{"type":"Point","coordinates":[55.3829445821173,25.331991362373145]},"id":"4","properties":{"DNB_BRDF_Corrected_NTL_max":232.43894598219129,"DNB_BRDF_Corrected_NTL_mean":125.56134310389523,"DNB_BRDF_Corrected_NTL_min":77.05355389912924,"area_name":"majaz","centroid_lat":25.33199136237314,"centroid_lon":55.382944582117304,"color_max":293.627587890625,"color_min":22.799912452697754,"year":2020}},{"type":"Feature","geometry":{"type":"Point","coordinates":[55.470101627418174,25.3048822435603]},"id":"5","properties":{"DNB_BRDF_Corrected_NTL_max":217.4138902936663,"DNB_BRDF_Corrected_NTL_mean":89.5265237649577,"DNB_BRDF_Corrected_NTL_min":22.799912452697754,"area_name":"zahia","centroid_lat":25.3048822435603,"centroid_lon":55.47010162741817,"color_max":293.627587890625,"color_min":22.799912452697754,"year":2020}},{"type":"Feature","geometry":{"type":"Point","coordinates":[55.42339343552692,25.320642053101942]},"id":"6","properties":{"DNB_BRDF_Corrected_NTL_max":186.29210510253907,"DNB_BRDF_Corrected_NTL_mean":93.35171884248224,"DNB_BRDF_Corrected_NTL_min":56.71839141845703,"area_name":"industrial","centroid_lat":25.320642053101942,"centroid_lon":55.42339343552691,"color_max":293.627587890625,"color_min":22.799912452697754,"year":2020}},{"type":"Feature","geometry":{"type":"Point","coordinates":[55.49820615057694,25.277343612456036]},"id":"7","properties":{"DNB_BRDF_Corrected_NTL_max":153.1804428100586,"DNB_BRDF_Corrected_NTL_mean":87.51476052815062,"DNB_BRDF_Corrected_NTL_min":34.700215657552086,"area_name":"noaf","centroid_lat":25.27734361245604,"centroid_lon":55.49820615057694,"color_max":293.627587890625,"color_min":22.799912452697754,"year":2020}},{"type":"Feature","geometry":{"type":"Point","coordinates":[55.390634894514875,25.346896201686643]},"id":"8","properties":{"DNB_BRDF_Corrected_NTL_max":261.57373046875,"DNB_BRDF_Corrected_NTL_mean":167.49978747998753,"DNB_BRDF_Corrected_NTL_min":96.75679016113281,"area_name":"qasmiyah","centroid_lat":25.346896201686643,"centroid_lon":55.390634894514875,"color_max":293.627587890625,"color_min":22.799912452697754,"year":2020}},{"type":"Feature","geometry":{"type":"Point","coordinates":[55.39739664016748,25.338861389809967]},"id":"9","properties":{"DNB_BRDF_Corrected_NTL_max":172.18784942626954,"DNB_BRDF_Corrected_NTL_mean":120.6240445710818,"DNB_BRDF_Corrected_NTL_min":86.61752319335938,"area_name":"abushagarah","centroid_lat":25.33886138980997,"centroid_lon":55.39739664016748,"color_max":293.627587890625,"color_min":22.799912452697754,"year":2020}},{"type":"Feature","geometry":{"type":"Point","coordinates":[55.40480699018786,25.350307065490806]},"id":"10","properties":{"DNB_BRDF_Corrected_NTL_max":293.627587890625,"DNB_BRDF_Corrected_NTL_mean":147.4816134211661,"DNB_BRDF_Corrected_NTL_min":107.4904899597168,"area_name":"yarmouk","centroid_lat":25.350307065490803,"centroid_lon":55.40480699018786,"color_max":293.627587890625,"color_min":22.799912452697754,"year":2020}},{"type":"Feature","geometry":{"type":"Point","coordinates":[55.397367563795534,25.354772767778087]},"id":"11","properties":{"DNB_BRDF_Corrected_NTL_max":293.627587890625,"DNB_BRDF_Corrected_NTL_mean":190.79612169269126,"DNB_BRDF_Corrected_NTL_min":137.02136448451452,"area_name":"mussalla","centroid_lat":25.354772767778087,"centroid_lon":55.397367563795534,"color_max":293.627587890625,"color_min":22.799912452697754,"year":2020}},{"type":"Feature","geometry":{"type":"Point","coordinates":[55.390904984552755,25.357824352428988]},"id":"12","properties":{"DNB_BRDF_Corrected_NTL_max":261.57373046875,"DNB_BRDF_Corrected_NTL_mean":168.92698155010908,"DNB_BRDF_Corrected_NTL_min":149.19599723815918,"area_name":"ghuwair","centroid_lat":25.357824352428988,"centroid_lon":55.390904984552755,"color_max":293.627587890625,"color_min":22.799912452697754,"year":2020}}]}