{"type":"FeatureCollection","features":[{"type":"Feature","geometry":{"type":"Point","coordinates":[55.51703624408665,25.30144324825781]},"id":"0","properties":{"LST_Day_1km_max":49.07545454545458,"LST_Day_1km_mean":47.50589930679237,"LST_Day_1km_min":45.77341463414639,"area_name":"muwaileh_suburb","centroid_lat":25.301443248257815,"centroid_lon":55.51703624408665,"color_max":48.686440677966154,"color_min":36.716608695652205}},{"type":"Feature","geometry":{"type":"Point","coordinates":[55.3810816625456,25.353297902413775]},"id":"1","properties":{"LST_Day_1km_max":38.637191011235984,"LST_Day_1km_mean":38.611584039687266,"LST_Day_1km_min":38.58158730158735,"area_name":"jubail","centroid_lat":25.353297902413775,"centroid_lon":55.3810816625456,"color_max":48.686440677966154,"color_min":36.716608695652205}},{"type":"Feature","geometry":{"type":"Point","coordinates":[55.420673671701934,25.345871897368642]},"id":"2","properties":{"LST_Day_1km_max":42.99571428571429,"LST_Day_1km_mean":42.25942833635332,"LST_Day_1km_min":40.92291338582679,"area_name":"halwan","centroid_lat":25.345871897368642,"centroid_lon":55.420673671701934,"color_max":48.686440677966154,"color_min":36.716608695652205}},{"type":"Feature","geometry":{"type":"Point","coordinates":[55.44445451967561,25.33374921278311]},"id":"3","properties":{"LST_Day_1km_max":46.852131147541,"LST_Day_1km_mean":43.649788351214205,"LST_Day_1km_min":42.484015748031524,"area_name":"mughaider_suburb","centroid_lat":25.33374921278311,"centroid_lon":55.44445451967561,"color_max":48.686440677966154,"color_min":36.716608695652205}},{"type":"Feature","geometry":{"type":"Point","coordinates":[55.38303623025247,25.331947888797444]},"id":"4","properties":{"LST_Day_1km_max":39.581406250000036,"LST_Day_1km_mean":37.78051348379275,"LST_Day_1km_min":35.87834951456313,"area_name":"majaz","centroid_lat":25.331947888797444,"centroid_lon":55.38303623025247,"color_max":48.686440677966154,"color_min":36.716608695652205}},{"type":"Feature","geometry":{"type":"Point","coordinates":[55.47033213998739,25.305104041179238]},"id":"5","properties":{"LST_Day_1km_max":48.46880341880345,"LST_Day_1km_mean":47.40731354971165,"LST_Day_1km_min":44.786190476190505,"area_name":"zahia","centroid_lat":25.30510404117923,"centroid_lon":55.47033213998739,"color_max":48.686440677966154,"color_min":36.716608695652205}},{"type":"Feature","geometry":{"type":"Point","coordinates":[55.4233189359967,25.320547703787728]},"id":"6","properties":{"LST_Day_1km_max":48.427948717948745,"LST_Day_1km_mean":45.34255443927642,"LST_Day_1km_min":38.469626168224316,"area_name":"industrial","centroid_lat":25.320547703787728,"centroid_lon":55.42331893599669,"color_max":48.686440677966154,"color_min":36.716608695652205}},{"type":"Feature","geometry":{"type":"Point","coordinates":[55.497937737619246,25.27717590237974]},"id":"7","properties":{"LST_Day_1km_max":49.131367521367544,"LST_Day_1km_mean":47.538370222574365,"LST_Day_1km_min":45.20444444444446,"area_name":"noaf","centroid_lat":25.27717590237974,"centroid_lon":55.497937737619246,"color_max":48.686440677966154,"color_min":36.716608695652205}},{"type":"Feature","geometry":{"type":"Point","coordinates":[55.39069921236536,25.346731908581635]},"id":"8","properties":{"LST_Day_1km_max":39.74920000000001,"LST_Day_1km_mean":39.33478523971537,"LST_Day_1km_min":38.469626168224316,"area_name":"qasmiyah","centroid_lat":25.346731908581635,"centroid_lon":55.39069921236536,"color_max":48.686440677966154,"color_min":36.716608695652205}},{"type":"Feature","geometry":{"type":"Point","coordinates":[55.39752058841496,25.338615922866975]},"id":"9","properties":{"LST_Day_1km_max":41.126825396825446,"LST_Day_1km_mean":39.44683892400869,"LST_Day_1km_min":38.469626168224316,"area_name":"abushagarah","centroid_lat":25.338615922866975,"centroid_lon":55.39752058841496,"color_max":48.686440677966154,"color_min":36.716608695652205}},{"type":"Feature","geometry":{"type":"Point","coordinates":[55.40471534230419,25.350297790979663]},"id":"10","properties":{"LST_Day_1km_max":42.14259842519688,"LST_Day_1km_mean":41.038031476892485,"LST_Day_1km_min":39.74920000000001,"area_name":"yarmouk","centroid_lat":25.350297790979663,"centroid_lon":55.40471534230419,"color_max":48.686440677966154,"color_min":36.716608695652205}},{"type":"Feature","geometry":{"type":"Point","coordinates":[55.39720632233019,25.354871701744845]},"id":"11","properties":{"LST_Day_1km_max":41.126825396825446,"LST_Day_1km_mean":39.95529399835476,"LST_Day_1km_min":38.22730158730161,"area_name":"mussalla","centroid_lat":25.354871701744845,"centroid_lon":55.39720632233019,"color_max":48.686440677966154,"color_min":36.716608695652205}},{"type":"Feature","geometry":{"type":"Point","coordinates":[55.39096831999655,25.35793731168824]},"id":"12","properties":{"LST_Day_1km_max":39.68590551181106,"LST_Day_1km_mean":38.95367418859613,"LST_Day_1km_min":37.52210526315793,"area_name":"ghuwair","centroid_lat":25.357937311688243,"centroid_lon":55.39096831999655,"color_max":48.686440677966154,"color_min":36.716608695652205}}]}